$GPRMC,224106.915,V,3454.931,N,07502.498,W,3.7,3.52,020317,,E*72
$GPGGA,224107.915,3454.931,N,07502.498,W,0,00,,,M,,M,,*56
$GPGLL,3454.931,N,07502.498,W,224108.915,V*39
$GPGSA,A,2,16,19,07,03,07,11,,,,,,,0.4,0.2,0.3*3A
$GPGSV,2,1,06,16,18,077,87,19,46,186,86,07,21,251,83,03,77,336,78*75
$GPGSV,2,2,06,07,76,354,49,11,57,287,65*7A
$GPRMC,224112.915,V,3454.932,N,07502.500,W,27.2,3.46,020317,,E*42
$GPGGA,224113.915,3454.932,N,07502.500,W,0,04,0.2,,M,,M,,*78
$GPGLL,3454.932,N,07502.500,W,224114.915,V*37
$GPGSA,A,3,16,19,07,03,07,11,,,,,,,0.8,0.4,0.3*31
$GPGSV,2,1,06,16,32,068,43,19,80,261,50,07,53,039,82,03,38,006,16*7B
$GPGSV,2,2,06,07,85,243,61,11,07,102,72*76
$GPRMC,224118.915,V,3454.933,N,07502.501,W,61.6,3.43,020317,,E*4B
$GPGGA,224119.915,3454.933,N,07502.501,W,0,04,0.4,,M,,M,,*74
$GPGLL,3454.933,N,07502.501,W,224120.915,V*30
$GPGSA,A,3,16,19,07,03,07,11,,,,,,,0.8,0.8,0.2*3C
$GPGSV,2,1,06,16,18,004,22,19,09,262,67,07,75,014,54,03,58,219,56*76
$GPGSV,2,2,06,07,63,335,34,11,72,268,17*70
$GPRMC,224124.915,V,3454.935,N,07502.503,W,54.4,3.45,020317,,E*42
$GPGGA,224125.915,3454.935,N,07502.503,W,0,04,0.8,,M,,M,,*73
$GPGLL,3454.935,N,07502.503,W,224126.915,V*32
$GPGSA,A,2,16,19,07,03,07,11,,,,,,,0.5,0.7,0.5*38
$GPGSV,2,1,06,16,13,013,72,19,72,342,38,07,74,281,66,03,40,237,47*70
$GPGSV,2,2,06,07,54,225,56,11,45,332,72*79
$GPRMC,224130.915,V,3454.936,N,07502.504,W,15.0,3.55,020317,,E*43
$GPGGA,224131.915,3454.936,N,07502.504,W,0,04,0.7,,M,,M,,*7D
$GPGLL,3454.936,N,07502.504,W,224132.915,V*33
$GPGSA,A,2,16,19,07,03,07,11,,,,,,,0.8,0.7,0.9*39
$GPGSV,2,1,06,16,69,278,57,19,35,074,55,07,19,237,73,03,68,096,24*7F
$GPGSV,2,2,06,07,39,225,51,11,20,109,69*76
$GPRMC,224136.915,V,3454.937,N,07502.505,W,88.0,3.57,020317,,E*43
$GPGGA,224137.915,3454.937,N,07502.505,W,0,04,0.7,,M,,M,,*7B
$GPGLL,3454.937,N,07502.505,W,224138.915,V*39
$GPGSA,A,2,16,19,07,03,07,11,,,,,,,0.7,0.6,0.4*3A
$GPGSV,2,1,06,16,80,010,38,19,69,358,17,07,69,337,72,03,29,249,81*72
$GPGSV,2,2,06,07,21,229,41,11,50,024,36*71
$GPRMC,224142.915,V,3454.939,N,07502.506,W,8.6,3.61,020317,,E*76
$GPGGA,224143.915,3454.939,N,07502.506,W,0,04,0.6,,M,,M,,*74
$GPGLL,3454.939,N,07502.506,W,224144.915,V*3F
$GPGSA,A,2,16,19,07,03,07,11,,,,,,,0.9,1.0,0.3*34
$GPGSV,2,1,06,16,24,038,36,19,75,204,58,07,57,193,20,03,77,349,29*78
$GPGSV,2,2,06,07,70,283,18,11,89,045,71*79
$GPRMC,224148.915,V,3454.940,N,07502.507,W,82.4,3.69,020317,,E*4B
$GPGGA,224149.915,3454.940,N,07502.507,W,0,04,1.0,,M,,M,,*76
$GPGLL,3454.940,N,07502.507,W,224150.915,V*35
$GPGSA,A,3,16,19,07,03,07,11,,,,,,,0.7,0.1,0.9*31
$GPGSV,2,1,06,16,19,318,65,19,64,311,27,07,12,169,79,03,66,253,16*72
$GPGSV,2,2,06,07,65,063,84,11,39,218,65*70
$GPRMC,224154.915,V,3454.942,N,07502.508,W,88.7,3.72,020317,,E*48
$GPGGA,224155.915,3454.942,N,07502.508,W,0,04,0.1,,M,,M,,*76
$GPGLL,3454.942,N,07502.508,W,224156.915,V*3E
$GPGSA,A,3,16,19,07,03,07,11,,,,,,,0.5,0.1,0.3*39
$GPGSV,2,1,06,16,17,224,52,19,83,284,89,07,89,053,16,03,76,187,85*74
$GPGSV,2,2,06,07,33,216,15,11,86,017,81*78
$GPRMC,224200.915,V,3454.943,N,07502.509,W,38.3,3.61,020317,,E*47
$GPGGA,224201.915,3454.943,N,07502.509,W,0,04,0.1,,M,,M,,*74
$GPGLL,3454.943,N,07502.509,W,224202.915,V*3C
$GPGSA,A,2,16,19,07,03,07,11,,,,,,,0.7,0.0,0.7*3F
$GPGSV,2,1,06,16,10,292,18,19,58,121,37,07,70,204,54,03,14,256,47*7A
$GPGSV,2,2,06,07,10,165,35,11,07,093,86*7E
$GPRMC,224206.915,V,3454.945,N,07502.509,W,55.0,3.66,020317,,E*48
$GPGGA,224207.915,3454.945,N,07502.509,W,0,04,0.0,,M,,M,,*75
$GPGLL,3454.945,N,07502.509,W,224208.915,V*30
$GPGSA,A,2,16,19,07,03,07,11,,,,,,,0.1,0.6,0.0*38
$GPGSV,2,1,06,16,56,210,27,19,40,150,66,07,77,079,22,03,86,148,25*78
$GPGSV,2,2,06,07,44,069,32,11,06,113,80*7B
$GPRMC,224212.915,V,3454.947,N,07502.510,W,66.6,3.69,020317,,E*4E
$GPGGA,224213.915,3454.947,N,07502.510,W,0,04,0.6,,M,,M,,*7C
$GPGLL,3454.947,N,07502.510,W,224214.915,V*37
$GPGSA,A,2,16,19,07,03,07,11,,,,,,,0.9,0.8,0.3*3D
$GPGSV,2,1,06,16,28,299,18,19,59,107,52,07,19,036,64,03,29,045,45*7F
$GPGSV,2,2,06,07,58,123,24,11,86,195,57*72
$GPRMC,224218.915,V,3454.948,N,07502.511,W,67.0,3.66,020317,,E*42
$GPGGA,224219.915,3454.948,N,07502.511,W,0,04,0.8,,M,,M,,*76
$GPGLL,3454.948,N,07502.511,W,224220.915,V*3E
$GPGSA,A,2,16,19,07,03,07,11,,,,,,,0.0,0.1,0.3*3D
$GPGSV,2,1,06,16,87,034,49,19,52,202,15,07,06,150,16,03,63,107,34*70
$GPGSV,2,2,06,07,30,113,54,11,35,139,65*77
$GPRMC,224224.915,V,3454.950,N,07502.512,W,57.2,3.58,020317,,E*4B
$GPGGA,224225.915,3454.950,N,07502.512,W,0,04,0.1,,M,,M,,*7A
$GPGLL,3454.950,N,07502.512,W,224226.915,V*32
$GPGSA,A,2,16,19,07,03,07,11,,,,,,,0.5,0.6,1.0*3D
$GPGSV,2,1,06,16,61,062,27,19,23,259,56,07,34,163,87,03,82,130,19*71
$GPGSV,2,2,06,07,53,041,63,11,61,272,84*72
$GPRMC,224230.915,V,3454.951,N,07502.513,W,34.4,3.89,020317,,E*41
$GPGGA,224231.915,3454.951,N,07502.513,W,0,04,0.6,,M,,M,,*78
$GPGLL,3454.951,N,07502.513,W,224232.915,V*37
$GPGSA,A,3,16,19,07,03,07,11,,,,,,,0.7,0.7,0.9*37
$GPGSV,2,1,06,16,19,254,73,19,34,348,41,07,08,003,24,03,66,340,34*78
$GPGSV,2,2,06,07,42,020,39,11,36,289,25*77
$GPRMC,224236.915,V,3454.953,N,07502.513,W,53.5,3.81,020317,,E*4D
$GPGGA,224237.915,3454.953,N,07502.513,W,0,04,0.7,,M,,M,,*7D
$GPGLL,3454.953,N,07502.513,W,224238.915,V*3F
$GPGSA,A,2,16,19,07,03,07,11,,,,,,,0.0,0.3,0.9*35
$GPGSV,2,1,06,16,47,148,31,19,19,313,56,07,16,275,84,03,28,197,80*77
$GPGSV,2,2,06,07,72,223,79,11,42,050,44*73
$GPRMC,224242.915,V,3454.955,N,07502.514,W,61.3,3.72,020317,,E*44
$GPGGA,224243.915,3454.955,N,07502.514,W,0,04,0.3,,M,,M,,*7B
$GPGLL,3454.955,N,07502.514,W,224244.915,V*35
$GPGSA,A,2,16,19,07,03,07,11,,,,,,,0.3,0.4,0.7*3F
$GPGSV,2,1,06,16,23,068,23,19,89,156,78,07,40,010,76,03,28,042,73*79
$GPGSV,2,2,06,07,66,270,34,11,26,149,64*70
$GPRMC,224248.915,V,3454.956,N,07502.515,W,92.5,3.65,020317,,E*40
$GPGGA,224249.915,3454.956,N,07502.515,W,0,04,0.4,,M,,M,,*74
$GPGLL,3454.956,N,07502.515,W,224250.915,V*32
$GPGSA,A,3,16,19,07,03,07,11,,,,,,,0.9,1.0,0.2*34
$GPGSV,2,1,06,16,80,141,19,19,70,178,31,07,27,009,40,03,33,071,42*70
$GPGSV,2,2,06,07,85,342,25,11,20,040,33*71
$GPRMC,224254.915,V,3454.958,N,07502.516,W,39.6,3.61,020317,,E*46
$GPGGA,224255.915,3454.958,N,07502.516,W,0,04,1.0,,M,,M,,*71
$GPGLL,3454.958,N,07502.516,W,224256.915,V*39
$GPGSA,A,2,16,19,07,03,07,11,,,,,,,0.1,0.6,0.7*3F
$GPGSV,2,1,06,16,84,307,64,19,63,018,74,07,61,317,20,03,83,081,68*7E
$GPGSV,2,2,06,07,68,263,76,11,44,092,63*7E
$GPRMC,224300.915,V,3454.959,N,07502.517,W,44.7,3.53,020317,,E*4C
$GPGGA,224301.915,3454.959,N,07502.517,W,0,04,0.6,,M,,M,,*76
$GPGLL,3454.959,N,07502.517,W,224302.915,V*39
$GPGSA,A,2,16,19,07,03,07,11,,,,,,,0.6,0.9,1.0*31
$GPGSV,2,1,06,16,29,250,81,19,77,162,23,07,76,263,79,03,11,204,26*7C
$GPGSV,2,2,06,07,12,281,40,11,89,064,56*74
$GPRMC,224306.915,V,3454.961,N,07502.518,W,22.1,3.85,020317,,E*43
$GPGGA,224307.915,3454.961,N,07502.518,W,0,04,0.9,,M,,M,,*7B
$GPGLL,3454.961,N,07502.518,W,224308.915,V*37
$GPGSA,A,2,16,19,07,03,07,11,,,,,,,1.0,0.1,1.0*3E
$GPGSV,2,1,06,16,46,292,16,19,52,229,51,07,72,122,22,03,80,233,55*7F
$GPGSV,2,2,06,07,32,241,49,11,26,023,33*76
$GPRMC,224312.915,V,3454.962,N,07502.519,W,59.3,3.51,020317,,E*43
$GPGGA,224313.915,3454.962,N,07502.519,W,0,04,0.1,,M,,M,,*74
$GPGLL,3454.962,N,07502.519,W,224314.915,V*38
$GPGSA,A,2,16,19,07,03,07,11,,,,,,,0.7,0.4,0.1*3D
$GPGSV,2,1,06,16,36,000,62,19,78,134,77,07,49,303,67,03,39,014,43*7B
$GPGSV,2,2,06,07,24,103,55,11,81,348,54*7B
$GPRMC,224318.915,V,3454.963,N,07502.520,W,53.3,3.50,020317,,E*49
$GPGGA,224319.915,3454.963,N,07502.520,W,0,04,0.4,,M,,M,,*70
$GPGLL,3454.963,N,07502.520,W,224320.915,V*34
$GPGSA,A,2,16,19,07,03,07,11,,,,,,,0.7,0.8,0.0*30
$GPGSV,2,1,06,16,05,213,70,19,66,032,68,07,68,292,22,03,41,162,63*78
$GPGSV,2,2,06,07,51,312,20,11,07,324,83*77
$GPRMC,224324.915,V,3454.964,N,07502.521,W,57.7,3.41,020317,,E*40
$GPGGA,224325.915,3454.964,N,07502.521,W,0,04,0.8,,M,,M,,*75
$GPGLL,3454.964,N,07502.521,W,224326.915,V*34
$GPGSA,A,2,16,19,07,03,07,11,,,,,,,0.1,0.4,0.5*3F
$GPGSV,2,1,06,16,73,105,70,19,74,321,58,07,89,288,76,03,84,146,75*71
$GPGSV,2,2,06,07,73,198,86,11,69,288,56*7C
$GPRMC,224330.915,V,3454.965,N,07502.523,W,64.8,3.33,020317,,E*4C
$GPGGA,224331.915,3454.965,N,07502.523,W,0,04,0.4,,M,,M,,*7F
$GPGLL,3454.965,N,07502.523,W,224332.915,V*32
$GPGSA,A,2,16,19,07,03,07,11,,,,,,,0.2,0.3,0.9*37
$GPGSV,2,1,06,16,28,198,47,19,20,215,74,07,45,215,30,03,25,068,23*75
$GPGSV,2,2,06,07,14,135,28,11,12,341,16*72
$GPRMC,224336.915,V,3454.966,N,07502.525,W,1.0,3.31,020317,,E*76
$GPGGA,224337.915,3454.966,N,07502.525,W,0,04,0.3,,M,,M,,*7B
$GPGLL,3454.966,N,07502.525,W,224338.915,V*3D
$GPGSA,A,3,16,19,07,03,07,11,,,,,,,0.1,0.1,0.1*3F
$GPGSV,2,1,06,16,45,265,43,19,26,190,41,07,51,159,50,03,69,151,81*76
$GPGSV,2,2,06,07,07,087,21,11,06,342,59*7C
$GPRMC,224342.915,V,3454.967,N,07502.526,W,27.1,3.39,020317,,E*4A
$GPGGA,224343.915,3454.967,N,07502.526,W,0,04,0.1,,M,,M,,*78
$GPGLL,3454.967,N,07502.526,W,224344.915,V*34
$GPGSA,A,2,16,19,07,03,07,11,,,,,,,0.8,0.0,0.0*37
$GPGSV,2,1,06,16,77,193,48,19,82,149,78,07,58,026,34,03,47,142,79*7D
$GPGSV,2,2,06,07,76,121,36,11,30,089,28*76
$GPRMC,224348.915,V,3454.968,N,07502.528,W,89.6,3.38,020317,,E*43
$GPGGA,224349.915,3454.968,N,07502.528,W,0,04,0.0,,M,,M,,*72
$GPGLL,3454.968,N,07502.528,W,224350.915,V*30
$GPGSA,A,3,16,19,07,03,07,11,,,,,,,0.6,0.7,0.5*3A
$GPGSV,2,1,06,16,68,343,37,19,12,089,47,07,68,231,79,03,62,277,61*79
$GPGSV,2,2,06,07,68,220,17,11,80,012,41*7E
$GPRMC,224354.915,V,3454.969,N,07502.529,W,74.9,3.28,020317,,E*42
$GPGGA,224355.915,3454.969,N,07502.529,W,0,04,0.7,,M,,M,,*78
$GPGLL,3454.969,N,07502.529,W,224356.915,V*36
$GPGSA,A,3,16,19,07,03,07,11,,,,,,,0.0,0.6,0.6*3E
$GPGSV,2,1,06,16,50,097,66,19,10,347,81,07,26,266,26,03,80,074,86*73
$GPGSV,2,2,06,07,77,186,72,11,38,010,82*72
$GPRMC,224400.915,V,3454.970,N,07502.531,W,3.6,3.31,020317,,E*72
$GPGGA,224401.915,3454.970,N,07502.531,W,0,04,0.6,,M,,M,,*7E
$GPGLL,3454.970,N,07502.531,W,224402.915,V*31
$GPGSA,A,2,16,19,07,03,07,11,,,,,,,0.8,0.9,0.6*38
$GPGSV,2,1,06,16,26,353,45,19,11,154,87,07,26,268,47,03,56,073,54*75
$GPGSV,2,2,06,07,47,003,30,11,44,093,62*75
$GPRMC,224406.915,V,3454.971,N,07502.532,W,99.2,3.27,020317,,E*46
$GPGGA,224407.915,3454.971,N,07502.532,W,0,04,0.9,,M,,M,,*75
$GPGLL,3454.971,N,07502.532,W,224408.915,V*39
$GPGSA,A,2,16,19,07,03,07,11,,,,,,,0.3,0.6,0.1*3B
$GPGSV,2,1,06,16,47,226,82,19,19,297,51,07,76,188,16,03,57,009,30*77
$GPGSV,2,2,06,07,37,161,40,11,57,114,30*7B
$GPRMC,224412.915,V,3454.971,N,07502.534,W,89.6,3.30,020317,,E*46
$GPGGA,224413.915,3454.971,N,07502.534,W,0,04,0.6,,M,,M,,*79
$GPGLL,3454.971,N,07502.534,W,224414.915,V*32
$GPGSA,A,3,16,19,07,03,07,11,,,,,,,0.7,0.6,0.9*36
$GPGSV,2,1,06,16,52,263,29,19,55,234,52,07,51,123,87,03,70,079,80*74
$GPGSV,2,2,06,07,80,147,82,11,62,128,35*71
$GPRMC,224418.915,V,3454.972,N,07502.536,W,39.3,3.25,020317,,E*47
$GPGGA,224419.915,3454.972,N,07502.536,W,0,04,0.6,,M,,M,,*72
$GPGLL,3454.972,N,07502.536,W,224420.915,V*34
$GPGSA,A,2,16,19,07,03,07,11,,,,,,,0.4,0.6,0.6*3B
$GPGSV,2,1,06,16,10,272,36,19,59,171,68,07,36,107,73,03,14,044,51*77
$GPGSV,2,2,06,07,66,103,79,11,42,232,34*76
$GPRMC,224424.915,V,3454.973,N,07502.537,W,17.4,3.26,020317,,E*40
$GPGGA,224425.915,3454.973,N,07502.537,W,0,04,0.6,,M,,M,,*7D
$GPGLL,3454.973,N,07502.537,W,224426.915,V*32
$GPGSA,A,2,16,19,07,03,07,11,,,,,,,0.6,0.7,0.9*37
$GPGSV,2,1,06,16,70,160,67,19,58,020,80,07,15,054,73,03,72,180,43*7B
$GPGSV,2,2,06,07,88,129,16,11,45,266,24*70
$GPRMC,224430.915,V,3454.973,N,07502.539,W,75.0,3.17,020317,,E*49
$GPGGA,224431.915,3454.973,N,07502.539,W,0,04,0.7,,M,,M,,*77
$GPGLL,3454.973,N,07502.539,W,224432.915,V*39
$GPGSA,A,2,16,19,07,03,07,11,,,,,,,0.3,0.5,0.2*3B
$GPGSV,2,1,06,16,19,336,37,19,11,349,81,07,79,349,44,03,68,283,72*78
$GPGSV,2,2,06,07,87,290,30,11,28,090,20*7E
$GPRMC,224436.915,V,3454.974,N,07502.541,W,15.1,3.17,020317,,E*40
$GPGGA,224437.915,3454.974,N,07502.541,W,0,04,0.5,,M,,M,,*7B
$GPGLL,3454.974,N,07502.541,W,224438.915,V*3B
$GPGSA,A,3,16,19,07,03,07,11,,,,,,,0.2,0.8,0.2*36
$GPGSV,2,1,06,16,66,043,79,19,45,294,47,07,65,008,24,03,59,252,50*72
$GPGSV,2,2,06,07,28,087,61,11,55,167,81*73
$GPRMC,224442.915,V,3454.974,N,07502.543,W,99.6,3.07,020317,,E*43
$GPGGA,224443.915,3454.974,N,07502.543,W,0,04,0.8,,M,,M,,*77
$GPGLL,3454.974,N,07502.543,W,224444.915,V*32
$GPGSA,A,3,16,19,07,03,07,11,,,,,,,0.9,0.8,0.3*3C
$GPGSV,2,1,06,16,82,066,88,19,26,294,75,07,36,231,57,03,57,088,85*7C
$GPGSV,2,2,06,07,52,140,28,11,66,062,18*7D
$GPRMC,224448.915,V,3454.974,N,07502.544,W,74.0,2.99,020317,,E*4D
$GPGGA,224449.915,3454.974,N,07502.544,W,0,04,0.8,,M,,M,,*7A
$GPGLL,3454.974,N,07502.544,W,224450.915,V*30
$GPGSA,A,3,16,19,07,03,07,11,,,,,,,0.8,0.7,0.5*34
$GPGSV,2,1,06,16,89,115,67,19,64,175,17,07,05,070,37,03,16,104,33*71
$GPGSV,2,2,06,07,77,252,76,11,14,190,25*76
$GPRMC,224454.915,V,3454.974,N,07502.546,W,0.2,3.02,020317,,E*70
$GPGGA,224455.915,3454.974,N,07502.546,W,0,04,0.7,,M,,M,,*7A
$GPGLL,3454.974,N,07502.546,W,224456.915,V*34
$GPGSA,A,3,16,19,07,03,07,11,,,,,,,0.5,0.4,0.8*37
$GPGSV,2,1,06,16,65,135,42,19,37,277,15,07,62,108,63,03,58,114,40*72
$GPGSV,2,2,06,07,58,178,27,11,65,018,59*78
$GPRMC,224500.915,V,3454.974,N,07502.548,W,42.5,3.03,020317,,E*4E
$GPGGA,224501.915,3454.974,N,07502.548,W,0,04,0.4,,M,,M,,*77
$GPGLL,3454.974,N,07502.548,W,224502.915,V*3A
$GPGSA,A,2,16,19,07,03,07,11,,,,,,,0.7,0.8,0.1*31
$GPGSV,2,1,06,16,50,199,49,19,87,332,64,07,11,300,86,03,51,215,62*7A
$GPGSV,2,2,06,07,14,140,73,11,59,283,80*71
$GPRMC,224506.915,V,3454.974,N,07502.550,W,3.1,2.88,020317,,E*72
$GPGGA,224507.915,3454.974,N,07502.550,W,0,04,0.8,,M,,M,,*74
$GPGLL,3454.974,N,07502.550,W,224508.915,V*39
$GPGSA,A,2,16,19,07,03,07,11,,,,,,,0.8,0.3,0.3*37
$GPGSV,2,1,06,16,59,218,80,19,21,350,18,07,68,255,22,03,72,111,46*7E
$GPGSV,2,2,06,07,09,257,57,11,54,045,54*72
$GPRMC,224512.915,V,3454.973,N,07502.552,W,10.8,2.88,020317,,E*49
$GPGGA,224513.915,3454.973,N,07502.552,W,0,04,0.3,,M,,M,,*7F
$GPGLL,3454.973,N,07502.552,W,224514.915,V*31
$GPGSA,A,3,16,19,07,03,07,11,,,,,,,0.0,0.1,1.0*3E
$GPGSV,2,1,06,16,61,140,88,19,30,017,35,07,27,145,60,03,80,184,36*75
$GPGSV,2,2,06,07,07,025,61,11,41,014,17*79
$GPRMC,224518.915,V,3454.973,N,07502.553,W,16.6,2.93,020317,,E*40
$GPGGA,224519.915,3454.973,N,07502.553,W,0,04,0.1,,M,,M,,*76
$GPGLL,3454.973,N,07502.553,W,224520.915,V*37
$GPGSA,A,3,16,19,07,03,07,11,,,,,,,0.5,0.0,0.8*33
$GPGSV,2,1,06,16,57,289,20,19,05,119,29,07,28,175,55,03,77,080,53*74
$GPGSV,2,2,06,07,64,254,86,11,48,139,48*7C
$GPRMC,224524.915,V,3454.973,N,07502.555,W,50.6,2.93,020317,,E*4B
$GPGGA,224525.915,3454.973,N,07502.555,W,0,04,0.0,,M,,M,,*7E
$GPGLL,3454.973,N,07502.555,W,224526.915,V*37
$GPGSA,A,2,16,19,07,03,07,11,,,,,,,0.7,0.3,0.1*3A
$GPGSV,2,1,06,16,44,117,17,19,48,081,68,07,17,219,85,03,80,252,44*71
$GPGSV,2,2,06,07,31,180,20,11,11,155,63*75
$GPRMC,224530.915,V,3454.973,N,07502.557,W,52.8,2.94,020317,,E*47
$GPGGA,224531.915,3454.973,N,07502.557,W,0,04,0.3,,M,,M,,*7A
$GPGLL,3454.973,N,07502.557,W,224532.915,V*30
$GPGSA,A,3,16,19,07,03,07,11,,,,,,,0.4,0.4,0.5*3B
$GPGSV,2,1,06,16,37,017,26,19,05,055,32,07,26,229,54,03,23,336,49*73
$GPGSV,2,2,06,07,73,299,35,11,52,241,81*71
$GPRMC,224536.915,V,3454.973,N,07502.559,W,74.4,2.94,020317,,E*47
$GPGGA,224537.915,3454.973,N,07502.559,W,0,04,0.4,,M,,M,,*75
$GPGLL,3454.973,N,07502.559,W,224538.915,V*34
$GPGSA,A,2,16,19,07,03,07,11,,,,,,,0.4,0.6,0.5*38
$GPGSV,2,1,06,16,42,255,59,19,41,144,24,07,64,167,26,03,52,253,51*7C
$GPGSV,2,2,06,07,24,228,17,11,08,173,45*7C
$GPRMC,224542.915,V,3454.973,N,07502.561,W,44.5,3.00,020317,,E*41
$GPGGA,224543.915,3454.973,N,07502.561,W,0,04,0.6,,M,,M,,*7F
$GPGLL,3454.973,N,07502.561,W,224544.915,V*34
$GPGSA,A,3,16,19,07,03,07,11,,,,,,,0.1,0.0,0.9*36
$GPGSV,2,1,06,16,50,172,58,19,59,325,72,07,25,337,56,03,76,163,15*74
$GPGSV,2,2,06,07,20,032,45,11,31,081,74*72
$GPRMC,224548.915,V,3454.973,N,07502.562,W,14.9,2.96,020317,,E*4F
$GPGGA,224549.915,3454.973,N,07502.562,W,0,04,0.0,,M,,M,,*70
$GPGLL,3454.973,N,07502.562,W,224550.915,V*32
$GPGSA,A,2,16,19,07,03,07,11,,,,,,,0.7,0.5,0.2*3F
$GPGSV,2,1,06,16,76,192,17,19,29,093,27,07,84,121,35,03,69,299,41*7E
$GPGSV,2,2,06,07,52,228,40,11,31,069,68*70
$GPRMC,224554.915,V,3454.973,N,07502.564,W,40.7,3.01,020317,,E*44
$GPGGA,224555.915,3454.973,N,07502.564,W,0,04,0.5,,M,,M,,*7E
$GPGLL,3454.973,N,07502.564,W,224556.915,V*32
$GPGSA,A,2,16,19,07,03,07,11,,,,,,,0.1,0.4,0.3*39
$GPGSV,2,1,06,16,75,198,21,19,05,176,62,07,47,253,45,03,89,232,68*7D
$GPGSV,2,2,06,07,44,248,53,11,24,233,40*70
$GPRMC,224600.915,V,3454.973,N,07502.566,W,21.3,3.04,020317,,E*42
$GPGGA,224601.915,3454.973,N,07502.566,W,0,04,0.4,,M,,M,,*7F
$GPGLL,3454.973,N,07502.566,W,224602.915,V*32
$GPGSA,A,3,16,19,07,03,07,11,,,,,,,0.3,0.1,0.6*3A
$GPGSV,2,1,06,16,06,011,81,19,75,109,36,07,59,138,25,03,31,231,57*76
$GPGSV,2,2,06,07,83,021,51,11,20,316,50*77
$GPRMC,224606.915,V,3454.973,N,07502.568,W,61.2,3.05,020317,,E*4E
$GPGGA,224607.915,3454.973,N,07502.568,W,0,04,0.1,,M,,M,,*72
$GPGLL,3454.973,N,07502.568,W,224608.915,V*36
$GPGSA,A,3,16,19,07,03,07,11,,,,,,,0.7,0.8,0.6*37
$GPGSV,2,1,06,16,43,190,67,19,89,206,61,07,62,157,87,03,15,054,39*7C
$GPGSV,2,2,06,07,32,342,64,11,85,125,54*74
$GPRMC,224612.915,V,3454.973,N,07502.570,W,95.9,3.05,020317,,E*42
$GPGGA,224613.915,3454.973,N,07502.570,W,0,04,0.8,,M,,M,,*77
$GPGLL,3454.973,N,07502.570,W,224614.915,V*32
$GPGSA,A,2,16,19,07,03,07,11,,,,,,,1.0,0.3,0.7*3A
$GPGSV,2,1,06,16,67,077,30,19,41,070,16,07,15,206,87,03,53,178,28*7D
$GPGSV,2,2,06,07,32,205,16,11,25,306,30*78
$GPRMC,224618.915,V,3454.973,N,07502.571,W,28.6,3.08,020317,,E*4D
$GPGGA,224619.915,3454.973,N,07502.571,W,0,04,0.3,,M,,M,,*77
$GPGLL,3454.973,N,07502.571,W,224620.915,V*34
$GPGSA,A,3,16,19,07,03,07,11,,,,,,,0.7,1.0,0.8*30
$GPGSV,2,1,06,16,72,188,43,19,28,273,32,07,57,125,59,03,05,172,27*75
$GPGSV,2,2,06,07,47,155,66,11,50,257,59*73
$GPRMC,224624.915,V,3454.973,N,07502.573,W,68.4,3.08,020317,,E*46
$GPGGA,224625.915,3454.973,N,07502.573,W,0,04,1.0,,M,,M,,*78
$GPGLL,3454.973,N,07502.573,W,224626.915,V*30
$GPGSA,A,3,16,19,07,03,07,11,,,,,,,0.3,0.5,0.4*3C
$GPGSV,2,1,06,16,16,068,39,19,21,203,44,07,65,263,38,03,56,191,78*7C
$GPGSV,2,2,06,07,11,009,47,11,29,192,18*7A
$GPRMC,224630.915,V,3454.974,N,07502.575,W,18.1,3.17,020317,,E*4E
$GPGGA,224631.915,3454.974,N,07502.575,W,0,04,0.5,,M,,M,,*78
$GPGLL,3454.974,N,07502.575,W,224632.915,V*34
$GPGSA,A,3,16,19,07,03,07,11,,,,,,,0.5,0.3,0.2*3A
$GPGSV,2,1,06,16,67,340,88,19,52,255,80,07,50,352,81,03,54,128,58*73
$GPGSV,2,2,06,07,64,112,21,11,34,316,71*7E
$GPRMC,224636.915,V,3454.974,N,07502.577,W,66.8,3.19,020317,,E*44
$GPGGA,224637.915,3454.974,N,07502.577,W,0,04,0.3,,M,,M,,*7A
$GPGLL,3454.974,N,07502.577,W,224638.915,V*3C
$GPGSA,A,3,16,19,07,03,07,11,,,,,,,0.0,1.0,0.8*37
$GPGSV,2,1,06,16,42,337,21,19,72,110,60,07,18,301,87,03,56,005,31*76
$GPGSV,2,2,06,07,85,222,46,11,30,210,77*75
$GPRMC,224642.915,V,3454.975,N,07502.578,W,9.3,3.22,020317,,E*73
$GPGGA,224643.915,3454.975,N,07502.578,W,0,04,1.0,,M,,M,,*75
$GPGLL,3454.975,N,07502.578,W,224644.915,V*39
$GPGSA,A,2,16,19,07,03,07,11,,,,,,,0.7,0.7,0.4*3B
$GPGSV,2,1,06,16,74,295,34,19,33,213,65,07,53,325,53,03,53,121,57*7C
$GPGSV,2,2,06,07,15,230,57,11,39,264,84*79
$GPRMC,224648.915,V,3454.975,N,07502.580,W,27.5,3.12,020317,,E*47
$GPGGA,224649.915,3454.975,N,07502.580,W,0,04,0.7,,M,,M,,*7E
$GPGLL,3454.975,N,07502.580,W,224650.915,V*3B
$GPGSA,A,2,16,19,07,03,07,11,,,,,,,0.6,1.0,0.3*3B
$GPGSV,2,1,06,16,70,015,72,19,16,054,28,07,76,229,48,03,61,031,18*75
$GPGSV,2,2,06,07,86,194,28,11,43,091,33*7F
$GPRMC,224654.915,V,3454.976,N,07502.582,W,55.1,3.14,020317,,E*4C
$GPGGA,224655.915,3454.976,N,07502.582,W,0,04,1.0,,M,,M,,*74
$GPGLL,3454.976,N,07502.582,W,224656.915,V*3C
$GPGSA,A,2,16,19,07,03,07,11,,,,,,,1.0,0.8,0.8*3E
$GPGSV,2,1,06,16,87,067,55,19,88,227,16,07,70,351,57,03,19,237,59*79
$GPGSV,2,2,06,07,26,016,59,11,54,084,51*7E
$GPRMC,224700.915,V,3454.976,N,07502.584,W,24.7,3.09,020317,,E*46
$GPGGA,224701.915,3454.976,N,07502.584,W,0,04,0.8,,M,,M,,*7B
$GPGLL,3454.976,N,07502.584,W,224702.915,V*3A
$GPGSA,A,2,16,19,07,03,07,11,,,,,,,0.8,0.7,0.1*31
$GPGSV,2,1,06,16,18,294,77,19,76,120,51,07,14,166,84,03,21,070,42*7D
$GPGSV,2,2,06,07,38,151,21,11,62,053,56*74
$GPRMC,224706.915,V,3454.976,N,07502.585,W,28.0,3.07,020317,,E*44
$GPGGA,224707.915,3454.976,N,07502.585,W,0,04,0.7,,M,,M,,*73
$GPGLL,3454.976,N,07502.585,W,224708.915,V*31
$GPGSA,A,3,16,19,07,03,07,11,,,,,,,0.3,0.6,1.0*3A
$GPGSV,2,1,06,16,78,096,25,19,20,310,37,07,07,133,76,03,53,148,79*76
$GPGSV,2,2,06,07,06,170,74,11,32,270,74*7C
$GPRMC,224712.915,V,3454.977,N,07502.587,W,20.2,3.15,020317,,E*4B
$GPGGA,224713.915,3454.977,N,07502.587,W,0,04,0.6,,M,,M,,*74
$GPGLL,3454.977,N,07502.587,W,224714.915,V*3F
$GPGSA,A,2,16,19,07,03,07,11,,,,,,,0.1,0.0,0.5*3B
$GPGSV,2,1,06,16,19,207,61,19,83,285,62,07,46,097,31,03,83,298,38*70
$GPGSV,2,2,06,07,31,122,79,11,82,115,80*72
$GPRMC,224718.915,V,3454.977,N,07502.589,W,20.9,3.07,020317,,E*47
$GPGGA,224719.915,3454.977,N,07502.589,W,0,04,0.0,,M,,M,,*76
$GPGLL,3454.977,N,07502.589,W,224720.915,V*36
$GPGSA,A,2,16,19,07,03,07,11,,,,,,,0.4,1.0,0.2*38
$GPGSV,2,1,06,16,39,247,62,19,77,000,71,07,47,351,18,03,52,147,47*75
$GPGSV,2,2,06,07,29,185,81,11,81,042,26*7D
$GPRMC,224724.915,V,3454.977,N,07502.591,W,12.1,2.90,020317,,E*47
$GPGGA,224725.915,3454.977,N,07502.591,W,0,04,1.0,,M,,M,,*71
$GPGLL,3454.977,N,07502.591,W,224726.915,V*39
$GPGSA,A,3,16,19,07,03,07,11,,,,,,,0.1,0.1,0.4*3A
$GPGSV,2,1,06,16,72,148,36,19,35,183,16,07,40,111,38,03,66,253,50*7E
$GPGSV,2,2,06,07,41,154,40,11,33,147,38*70
$GPRMC,224730.915,V,3454.976,N,07502.592,W,98.6,2.84,020317,,E*40
$GPGGA,224731.915,3454.976,N,07502.592,W,0,04,0.1,,M,,M,,*76
$GPGLL,3454.976,N,07502.592,W,224732.915,V*3E
$GPGSA,A,2,16,19,07,03,07,11,,,,,,,0.4,0.9,0.4*36
$GPGSV,2,1,06,16,86,225,51,19,05,343,63,07,31,203,50,03,24,144,41*78
$GPGSV,2,2,06,07,26,147,88,11,84,230,44*73
$GPRMC,224736.915,V,3454.976,N,07502.594,W,30.2,2.82,020317,,E*40
$GPGGA,224737.915,3454.976,N,07502.594,W,0,04,0.9,,M,,M,,*7E
$GPGLL,3454.976,N,07502.594,W,224738.915,V*32
$GPGSA,A,3,16,19,07,03,07,11,,,,,,,0.7,0.2,0.4*3F
$GPGSV,2,1,06,16,59,062,66,19,72,066,36,07,52,336,40,03,65,036,86*72
$GPGSV,2,2,06,07,28,235,66,11,18,344,84*70
$GPRMC,224742.915,V,3454.975,N,07502.596,W,5.0,2.92,020317,,E*77
$GPGGA,224743.915,3454.975,N,07502.596,W,0,04,0.2,,M,,M,,*77
$GPGLL,3454.975,N,07502.596,W,224744.915,V*38
$GPGSA,A,2,16,19,07,03,07,11,,,,,,,0.7,0.1,0.1*38
$GPGSV,2,1,06,16,07,230,20,19,41,270,15,07,32,315,41,03,62,184,31*7F
$GPGSV,2,2,06,07,62,040,73,11,87,213,52*74
$GPRMC,224748.915,V,3454.975,N,07502.598,W,23.3,2.85,020317,,E*42
$GPGGA,224749.915,3454.975,N,07502.598,W,0,04,0.1,,M,,M,,*70
$GPGLL,3454.975,N,07502.598,W,224750.915,V*33
$GPGSA,A,2,16,19,07,03,07,11,,,,,,,0.5,0.4,0.7*39
$GPGSV,2,1,06,16,81,167,52,19,25,134,55,07,49,060,30,03,55,187,81*77
$GPGSV,2,2,06,07,46,038,81,11,58,301,47*74
$GPRMC,224754.915,V,3454.975,N,07502.599,W,26.4,2.85,020317,,E*4C
$GPGGA,224755.915,3454.975,N,07502.599,W,0,04,0.4,,M,,M,,*79
$GPGLL,3454.975,N,07502.599,W,224756.915,V*34
$GPGSA,A,3,16,19,07,03,07,11,,,,,,,0.8,0.2,0.2*36
$GPGSV,2,1,06,16,72,299,61,19,23,288,19,07,06,233,39,03,74,335,17*72
$GPGSV,2,2,06,07,06,343,62,11,86,266,89*73
$GPRMC,224800.915,V,3454.974,N,07502.601,W,48.7,2.82,020317,,E*4D
$GPGGA,224801.915,3454.974,N,07502.601,W,0,04,0.2,,M,,M,,*72
$GPGLL,3454.974,N,07502.601,W,224802.915,V*39
$GPGSA,A,2,16,19,07,03,07,11,,,,,,,1.0,0.9,0.2*35
$GPGSV,2,1,06,16,17,163,15,19,54,283,51,07,34,331,85,03,69,276,33*7A
$GPGSV,2,2,06,07,76,136,66,11,08,199,40*70
$GPRMC,224806.915,V,3454.973,N,07502.603,W,85.3,2.72,020317,,E*44
$GPGGA,224807.915,3454.973,N,07502.603,W,0,04,0.9,,M,,M,,*7A
$GPGLL,3454.973,N,07502.603,W,224808.915,V*36
$GPGSA,A,2,16,19,07,03,07,11,,,,,,,0.4,0.2,0.9*30
$GPGSV,2,1,06,16,62,097,67,19,50,239,46,07,13,004,63,03,20,097,70*7B
$GPGSV,2,2,06,07,37,281,55,11,81,166,47*7C
$GPRMC,224812.915,V,3454.972,N,07502.604,W,87.1,2.71,020317,,E*44
$GPGGA,224813.915,3454.972,N,07502.604,W,0,04,0.2,,M,,M,,*72
$GPGLL,3454.972,N,07502.604,W,224814.915,V*3D
$GPGSA,A,3,16,19,07,03,07,11,,,,,,,0.7,0.8,0.6*37
$GPGSV,2,1,06,16,07,161,22,19,82,016,19,07,52,212,81,03,55,044,86*72
$GPGSV,2,2,06,07,06,296,22,11,42,167,35*73
$GPRMC,224818.915,V,3454.971,N,07502.606,W,35.1,2.61,020317,,E*47
$GPGGA,224819.915,3454.971,N,07502.606,W,0,04,0.8,,M,,M,,*73
$GPGLL,3454.971,N,07502.606,W,224820.915,V*3B
$GPGSA,A,2,16,19,07,03,07,11,,,,,,,0.9,0.8,0.5*3B
$GPGSV,2,1,06,16,31,073,20,19,48,189,37,07,19,226,57,03,53,066,23*70
$GPGSV,2,2,06,07,30,270,54,11,64,243,16*7F
$GPRMC,224824.915,V,3454.971,N,07502.607,W,3.3,2.71,020317,,E*7F
$GPGGA,224825.915,3454.971,N,07502.607,W,0,04,0.8,,M,,M,,*7D
$GPGLL,3454.971,N,07502.607,W,224826.915,V*3C
$GPGSA,A,3,16,19,07,03,07,11,,,,,,,0.5,0.1,0.9*33
$GPGSV,2,1,06,16,42,141,64,19,11,244,26,07,15,185,43,03,34,053,48*73
$GPGSV,2,2,06,07,73,066,48,11,39,188,63*7E
$GPRMC,224830.915,V,3454.970,N,07502.609,W,95.5,2.60,020317,,E*4C
$GPGGA,224831.915,3454.970,N,07502.609,W,0,04,0.1,,M,,M,,*7E
$GPGLL,3454.970,N,07502.609,W,224832.915,V*36
$GPGSA,A,3,16,19,07,03,07,11,,,,,,,1.0,0.2,0.8*35
$GPGSV,2,1,06,16,56,247,33,19,38,134,46,07,84,021,69,03,37,354,87*73
$GPGSV,2,2,06,07,05,189,84,11,42,179,56*7B
$GPRMC,224836.915,V,3454.969,N,07502.610,W,87.7,2.66,020317,,E*4D
$GPGGA,224837.915,3454.969,N,07502.610,W,0,04,0.2,,M,,M,,*7B
$GPGLL,3454.969,N,07502.610,W,224838.915,V*3C
$GPGSA,A,2,16,19,07,03,07,11,,,,,,,0.1,0.4,0.4*3E
$GPGSV,2,1,06,16,10,145,78,19,86,319,65,07,82,030,32,03,16,349,34*79
$GPGSV,2,2,06,07,15,004,65,11,58,305,29*7B
$GPRMC,224842.915,V,3454.968,N,07502.612,W,59.5,2.65,020317,,E*4F
$GPGGA,224843.915,3454.968,N,07502.612,W,0,04,0.4,,M,,M,,*7D
$GPGLL,3454.968,N,07502.612,W,224844.915,V*34
$GPGSA,A,2,16,19,07,03,07,11,,,,,,,0.2,1.0,0.1*3D
$GPGSV,2,1,06,16,56,188,43,19,74,317,34,07,51,280,29,03,54,309,21*7E
$GPGSV,2,2,06,07,59,115,60,11,71,096,35*78
$GPRMC,224848.915,V,3454.967,N,07502.613,W,81.2,2.55,020317,,E*4A
$GPGGA,224849.915,3454.967,N,07502.613,W,0,04,1.0,,M,,M,,*7C
$GPGLL,3454.967,N,07502.613,W,224850.915,V*3F
$GPGSA,A,2,16,19,07,03,07,11,,,,,,,0.5,0.4,0.2*3C
$GPGSV,2,1,06,16,79,287,45,19,13,128,80,07,50,004,62,03,61,356,60*70
$GPGSV,2,2,06,07,45,144,77,11,81,289,40*76
$GPRMC,224854.915,V,3454.966,N,07502.615,W,28.2,2.61,020317,,E*44
$GPGGA,224855.915,3454.966,N,07502.615,W,0,04,0.4,,M,,M,,*73
$GPGLL,3454.966,N,07502.615,W,224856.915,V*3E
$GPGSA,A,2,16,19,07,03,07,11,,,,,,,0.8,0.4,0.5*36
$GPGSV,2,1,06,16,56,063,37,19,62,148,50,07,32,306,51,03,82,067,75*70
$GPGSV,2,2,06,07,87,296,53,11,18,307,63*74
$GPRMC,224900.915,V,3454.964,N,07502.616,W,53.7,2.59,020317,,E*47
$GPGGA,224901.915,3454.964,N,07502.616,W,0,04,0.4,,M,,M,,*72
$GPGLL,3454.964,N,07502.616,W,224902.915,V*3F
$GPGSA,A,2,16,19,07,03,07,11,,,,,,,0.2,0.3,0.7*39
$GPGSV,2,1,06,16,30,220,58,19,78,094,46,07,38,044,20,03,57,210,54*70
$GPGSV,2,2,06,07,47,077,45,11,61,078,62*76
$GPRMC,224906.915,V,3454.964,N,07502.618,W,71.3,2.66,020317,,E*47
$GPGGA,224907.915,3454.964,N,07502.618,W,0,04,0.3,,M,,M,,*7D
$GPGLL,3454.964,N,07502.618,W,224908.915,V*3B
$GPGSA,A,2,16,19,07,03,07,11,,,,,,,0.4,0.8,0.7*34
$GPGSV,2,1,06,16,09,320,58,19,19,024,25,07,14,287,77,03,48,200,59*71
$GPGSV,2,2,06,07,29,179,79,11,73,304,87*7E
$GPRMC,224912.915,V,3454.962,N,07502.619,W,93.1,2.58,020317,,E*46
$GPGGA,224913.915,3454.962,N,07502.619,W,0,04,0.8,,M,,M,,*74
$GPGLL,3454.962,N,07502.619,W,224914.915,V*31
$GPGSA,A,3,16,19,07,03,07,11,,,,,,,0.4,0.9,0.7*34
$GPGSV,2,1,06,16,62,325,80,19,19,290,69,07,15,059,82,03,26,347,56*76
$GPGSV,2,2,06,07,61,062,19,11,39,335,88*7C
$GPRMC,224918.915,V,3454.961,N,07502.620,W,94.3,2.47,020317,,E*4E
$GPGGA,224919.915,3454.961,N,07502.620,W,0,04,0.9,,M,,M,,*76
$GPGLL,3454.961,N,07502.620,W,224920.915,V*3F
$GPGSA,A,3,16,19,07,03,07,11,,,,,,,0.1,0.2,0.3*3E
$GPGSV,2,1,06,16,70,256,24,19,44,339,44,07,15,214,49,03,60,096,23*78
$GPGSV,2,2,06,07,50,358,37,11,22,301,30*76
$GPRMC,224924.915,V,3454.960,N,07502.622,W,11.7,2.42,020317,,E*4E
$GPGGA,224925.915,3454.960,N,07502.622,W,0,04,0.2,,M,,M,,*71
$GPGLL,3454.960,N,07502.622,W,224926.915,V*3A
$GPGSA,A,3,16,19,07,03,07,11,,,,,,,0.5,0.9,0.8*3A
$GPGSV,2,1,06,16,33,315,82,19,85,111,36,07,36,049,19,03,71,029,78*71
$GPGSV,2,2,06,07,32,322,49,11,69,262,20*7C
$GPRMC,224930.915,V,3454.958,N,07502.623,W,52.5,2.44,020317,,E*42
$GPGGA,224931.915,3454.958,N,07502.623,W,0,04,0.9,,M,,M,,*75
$GPGLL,3454.958,N,07502.623,W,224932.915,V*35
$GPGSA,A,3,16,19,07,03,07,11,,,,,,,0.9,0.9,0.1*3F
$GPGSV,2,1,06,16,82,339,53,19,59,149,74,07,56,296,52,03,20,299,24*7E
$GPGSV,2,2,06,07,23,034,52,11,05,229,41*70
$GPRMC,224936.915,V,3454.957,N,07502.624,W,77.4,2.41,020317,,E*4F
$GPGGA,224937.915,3454.957,N,07502.624,W,0,04,0.9,,M,,M,,*7B
$GPGLL,3454.957,N,07502.624,W,224938.915,V*37
$GPGSA,A,2,16,19,07,03,07,11,,,,,,,0.9,0.5,0.9*3A
$GPGSV,2,1,06,16,20,002,39,19,14,318,77,07,17,338,52,03,15,032,63*7B
$GPGSV,2,2,06,07,72,285,57,11,78,219,43*72
$GPRMC,224942.915,V,3454.955,N,07502.625,W,16.6,2.45,020317,,E*4E
$GPGGA,224943.915,3454.955,N,07502.625,W,0,04,0.5,,M,,M,,*77
$GPGLL,3454.955,N,07502.625,W,224944.915,V*3F
$GPGSA,A,3,16,19,07,03,07,11,,,,,,,0.9,0.7,0.1*31
$GPGSV,2,1,06,16,40,239,40,19,89,059,28,07,37,171,47,03,23,139,22*72
$GPGSV,2,2,06,07,67,053,26,11,70,220,23*7D
$GPRMC,224948.915,V,3454.954,N,07502.626,W,34.3,2.42,020317,,E*44
$GPGGA,224949.915,3454.954,N,07502.626,W,0,04,0.7,,M,,M,,*7D
$GPGLL,3454.954,N,07502.626,W,224950.915,V*38
$GPGSA,A,3,16,19,07,03,07,11,,,,,,,0.7,0.1,0.2*3A
$GPGSV,2,1,06,16,05,346,27,19,78,207,67,07,63,022,39,03,32,265,19*7A
$GPGSV,2,2,06,07,34,352,28,11,41,164,40*73
$GPRMC,224954.915,V,3454.953,N,07502.627,W,94.8,2.41,020317,,E*4D
$GPGGA,224955.915,3454.953,N,07502.627,W,0,04,0.1,,M,,M,,*70
$GPGLL,3454.953,N,07502.627,W,224956.915,V*38
$GPGSA,A,3,16,19,07,03,07,11,,,,,,,0.7,0.1,0.2*3A
$GPGSV,2,1,06,16,24,157,64,19,24,331,63,07,77,340,65,03,16,041,18*7D
$GPGSV,2,2,06,07,06,288,36,11,59,023,49*79
$GPRMC,225000.915,V,3454.951,N,07502.628,W,49.7,2.46,020317,,E*41
$GPGGA,225001.915,3454.951,N,07502.628,W,0,04,0.1,,M,,M,,*74
$GPGLL,3454.951,N,07502.628,W,225002.915,V*3C
$GPGSA,A,2,16,19,07,03,07,11,,,,,,,0.8,0.8,0.9*36
$GPGSV,2,1,06,16,25,177,16,19,47,344,65,07,29,024,71,03,53,299,89*7B
$GPGSV,2,2,06,07,82,222,45,11,05,170,59*7E
$GPRMC,225006.915,V,3454.950,N,07502.629,W,60.8,2.38,020317,,E*4A
$GPGGA,225007.915,3454.950,N,07502.629,W,0,04,0.8,,M,,M,,*7B
$GPGLL,3454.950,N,07502.629,W,225008.915,V*36
$GPGSA,A,2,16,19,07,03,07,11,,,,,,,0.2,0.9,0.5*31
$GPGSV,2,1,06,16,54,350,56,19,06,356,67,07,40,341,80,03,23,312,71*79
$GPGSV,2,2,06,07,85,019,53,11,08,160,30*77
$GPRMC,225012.915,V,3454.948,N,07502.631,W,16.3,2.48,020317,,E*42
$GPGGA,225013.915,3454.948,N,07502.631,W,0,04,0.9,,M,,M,,*7F
$GPGLL,3454.948,N,07502.631,W,225014.915,V*3B
$GPGSA,A,2,16,19,07,03,07,11,,,,,,,0.0,0.6,0.7*3E
$GPGSV,2,1,06,16,13,207,71,19,61,279,49,07,07,229,46,03,08,120,41*72
$GPGSV,2,2,06,07,72,001,46,11,13,094,19*79
$GPRMC,225018.915,V,3454.947,N,07502.632,W,43.9,2.42,020317,,E*44
$GPGGA,225019.915,3454.947,N,07502.632,W,0,04,0.6,,M,,M,,*76
$GPGLL,3454.947,N,07502.632,W,225020.915,V*30
$GPGSA,A,2,16,19,07,03,07,11,,,,,,,0.3,0.5,0.1*38
$GPGSV,2,1,06,16,25,165,40,19,31,137,58,07,13,143,53,03,24,009,88*71
$GPGSV,2,2,06,07,13,021,82,11,05,339,16*78
$GPRMC,225024.915,V,3454.945,N,07502.633,W,62.2,2.33,020317,,E*46
$GPGGA,225025.915,3454.945,N,07502.633,W,0,04,0.5,,M,,M,,*79
$GPGLL,3454.945,N,07502.633,W,225026.915,V*35
$GPGSA,A,3,16,19,07,03,07,11,,,,,,,0.3,0.8,0.6*33
$GPGSV,2,1,06,16,36,278,20,19,35,280,65,07,86,062,34,03,82,133,17*72
$GPGSV,2,2,06,07,78,231,21,11,07,158,64*7D
$GPRMC,225030.915,V,3454.945,N,07502.634,W,79.4,2.74,020317,,E*4B
$GPGGA,225031.915,3454.945,N,07502.634,W,0,04,0.8,,M,,M,,*76
$GPGLL,3454.945,N,07502.634,W,225032.915,V*37
$GPGSA,A,2,16,19,07,03,07,11,,,,,,,0.1,1.0,0.6*39
$GPGSV,2,1,06,16,37,115,84,19,68,045,83,07,63,118,50,03,62,334,73*72
$GPGSV,2,2,06,07,45,315,88,11,11,137,46*79
$GPRMC,225036.915,V,3454.944,N,07502.636,W,90.6,2.81,020317,,E*41
$GPGGA,225037.915,3454.944,N,07502.636,W,0,04,1.0,,M,,M,,*7A
$GPGLL,3454.944,N,07502.636,W,225038.915,V*3E
$GPGSA,A,2,16,19,07,03,07,11,,,,,,,0.9,0.6,0.2*32
$GPGSV,2,1,06,16,10,259,72,19,82,103,89,07,51,330,62,03,49,309,73*77
$GPGSV,2,2,06,07,46,122,45,11,31,152,38*75
$GPRMC,225042.915,V,3454.944,N,07502.638,W,21.6,2.84,020317,,E*43
$GPGGA,225043.915,3454.944,N,07502.638,W,0,04,0.6,,M,,M,,*70
$GPGLL,3454.944,N,07502.638,W,225044.915,V*3B
$GPGSA,A,2,16,19,07,03,07,11,,,,,,,0.5,0.7,0.2*3F
$GPGSV,2,1,06,16,75,095,65,19,29,024,59,07,35,351,22,03,27,181,56*74
$GPGSV,2,2,06,07,06,190,86,11,17,197,55*71
$GPRMC,225048.915,V,3454.943,N,07502.639,W,27.9,2.78,020317,,E*45
$GPGGA,225049.915,3454.943,N,07502.639,W,0,04,0.7,,M,,M,,*7D
$GPGLL,3454.943,N,07502.639,W,225050.915,V*38
$GPGSA,A,3,16,19,07,03,07,11,,,,,,,0.2,0.6,0.2*38
$GPGSV,2,1,06,16,24,277,57,19,88,044,78,07,75,083,58,03,53,186,70*74
$GPGSV,2,2,06,07,44,349,36,11,47,003,63*76
$GPRMC,225054.915,V,3454.943,N,07502.641,W,52.2,2.87,020317,,E*4E
$GPGGA,225055.915,3454.943,N,07502.641,W,0,04,0.6,,M,,M,,*7E
$GPGLL,3454.943,N,07502.641,W,225056.915,V*31
$GPGSA,A,2,16,19,07,03,07,11,,,,,,,0.1,0.3,0.0*3D
$GPGSV,2,1,06,16,32,134,24,19,09,339,62,07,87,054,56,03,89,042,17*7E
$GPGSV,2,2,06,07,71,298,16,11,11,067,31*79
$GPRMC,225100.915,V,3454.942,N,07502.643,W,73.6,2.85,020317,,E*48
$GPGGA,225101.915,3454.942,N,07502.643,W,0,04,0.3,,M,,M,,*78
$GPGLL,3454.942,N,07502.643,W,225102.915,V*32
$GPGSA,A,2,16,19,07,03,07,11,,,,,,,0.2,1.0,0.5*39
$GPGSV,2,1,06,16,77,348,48,19,58,167,82,07,38,324,19,03,20,017,44*71
$GPGSV,2,2,06,07,66,330,67,11,44,211,22*7B
